station_id,name,state,lat,lon,elevation_m
USW00093826,BARIN FLD NAAS,AL,30.4,-87.6,21.9
USW00003850,CAIRNS FLD FT RUCKER,AL,31.2667,-85.7167,91.1
USW00063891,CLANTON 2 NE,AL,32.8517,-86.6114,178.0
USW00013885,EVERGREEN FAA AP,AL,31.4167,-87.0333,78.0
USW00063870,FLORALA MUNI AP,AL,31.0447,-86.312,90.8
USW00063892,GAINESVILLE 2 NE,AL,32.8369,-88.1375,32.6
USW00013821,MAXWELL FLD,AL,32.3833,-86.35,64.0
USW00073801,NORTHPORT 2 S,AL,33.2125,-87.5914,45.7
USW00063895,RUSSELLVILLE 4 SSE,AL,34.4536,-87.7103,219.5
USW00003878,TROY MUNI AP,AL,31.8575,-86.0103,118.6
USW00013814,BLYTHEVILLE AFB,AR,35.9667,-89.95,79.9
USW00000133,CLINTON MUNI AP,AR,35.6,-92.45,157.3
USW00093992,EL DORADO GOODWIN FLD,AR,33.2208,-92.8142,78.0
USW00013964,FT SMITH RGNL AP,AR,35.3333,-94.3653,136.6
USW00003952,LITTLE ROCK,AR,34.8364,-92.2622,197.8
USW00013963,LITTLE ROCK AP ADAMS FLD,AR,34.7272,-92.2358,76.5
USW00053921,MT IDA,AR,34.5467,-93.5781,214.0
USW00013925,STUTTGART MUNI AP,AR,34.6003,-91.5744,68.3
USW00013977,TEXARKANA WEBB FLD,AR,33.4561,-93.9878,115.8
USW00053006,AMADO 23 W,AZ,31.6922,-111.4481,1005.8
USW00053160,CAMP VERDE 3 N,AZ,34.6136,-111.8431,1046.7
USW00023109,DAVIS MONTHAN AFB,AZ,32.1667,-110.8833,808.9
USW00093026,DOUGLAS (BISBEE) INTL AP,AZ,31.4583,-109.6067,1247.9
USW00053132,ELGIN 5 S,AZ,31.5908,-110.5086,1466.4
USW00023166,FLAGSTAFF WB CITY,AZ,35.2,-111.6667,2110.1
USW00053146,FT HUACHUCA PIONEER AIRFIELD,AZ,31.6056,-110.4281,1445.4
USW00003195,GRAND CANYON NP AP,AZ,35.9458,-112.1553,1993.4
USW00003077,HOLBROOK 17 ESE,AZ,34.8222,-109.8928,1710.8
USW00093167,KINGMAN AP,AZ,35.2575,-113.9342,1043.3
USW00053184,MEADVIEW 7 N,AZ,36.0936,-114.045,895.5
USW00003196,NOGALES INTL AP,AZ,31.4208,-110.8467,1193.0
USW00053164,PAGE 9 WSW,AZ,36.8636,-111.6011,991.8
USW00023111,PHOENIX LUKE AFB,AZ,33.55,-112.3667,331.0
USW00053181,SAFFORD 5 NNE,AZ,32.8564,-109.635,968.0
USW00093084,SAFFORD MUNI AP,AZ,32.8567,-109.6361,967.7
USW00093145,YUMA WB CITY,AZ,32.7333,-114.6167,73.2
USW00023195,YUMA WSO AP,AZ,32.6667,-114.6,62.8
USW00023239,ALAMEDA NAS,CA,37.7333,-122.3167,4.9
USW00023161,BARSTOW-DAGGETT AP,CA,34.8536,-116.7869,584.9
USW00093216,BEALE AFB,CA,39.1167,-121.4333,38.1
USW00023225,BLUE CANYON NYACK AP,CA,39.2761,-120.7092,1611.2
USW00003154,CAMP PENDLETON MCAS,CA,33.3042,-117.355,21.3
USW00093104,CHINA LAKE NAF,CA,35.6864,-117.6908,680.0
USW00023196,CHULA VISTA BROWN FLD NAAS,CA,32.5833,-116.9833,159.4
USW00024286,CRESCENT CITY MCNAMARA AP,CA,41.7836,-124.2381,17.1
USW00023114,EDWARDS AFB,CA,34.9,-117.8667,705.9
USW00093193,FRESNO YOSEMITE INTL,CA,36.78,-119.7203,101.8
USW00093218,JOLON FT HUNTER LIGGETT,CA,36.0,-121.2333,317.0
USW00023119,MARCH AFB,CA,33.9,-117.25,468.2
USW00023258,MODESTO AP,CA,37.6256,-120.955,26.5
USW00093108,MOJAVE MCAS,CA,35.1167,-118.15,841.9
USW00024215,MT SHASTA,CA,41.315,-122.3172,1083.0
USW00093112,N IS NAS,CA,32.6922,-117.2097,4.3
USW00023180,NEWHALL AP,CA,34.4,-118.55,370.0
USW00093210,OROVILLE MUNI AP,CA,39.4942,-121.6222,57.0
USW00093110,OXNARD VENTURA CO AP,CA,34.2,-119.2042,11.9
USW00053120,RAMONA AP,CA,33.0381,-116.9161,422.1
USW00004222,REDDING 12 WNW,CA,40.6508,-122.6067,432.2
USW00093230,S LAKE TAHOE AP,CA,38.8983,-119.9961,1907.1
USW00023208,SACRAMENTO MCCLELLAN AFB,CA,38.6667,-121.4,25.0
USW00023188,SAN DIEGO INTL AP,CA,32.7336,-117.1831,4.6
USW00093226,SAN SIMEON PT PIEDRAS BLANCAS,CA,35.6656,-121.2847,18.0
USW00093124,SANTA BARBARA MCAS,CA,34.4333,-119.85,4.0
USW00023273,SANTA MARIA PUBLIC AP,CA,34.8942,-120.4522,74.1
USW00003122,TORRANCE AP,CA,33.8017,-118.3411,27.4
USW00023275,UKIAH MUNI AP,CA,39.1278,-123.2003,183.8
USW00093214,VANDENBERG AFB,CA,34.7167,-120.5667,116.1
USW00093215,VANDENBERG AFB,CA,34.6667,-120.5833,111.9
USW00053150,YOSEMITE VILLAGE 12 W,CA,37.7592,-119.8208,2017.8
USW00024015,AKRON WASHINGTON CO AP,CO,40.1744,-103.2147,1428.0
USW00053005,BUENA VISTA 2 SSE,CO,38.8111,-106.1219,2418.0
USW00003026,BURLINGTON CARSON AP,CO,39.2414,-102.2819,1278.3
USW00053007,COLORADO SPRINGS 23 NW,CO,39.0878,-105.0878,2399.4
USW00093067,DENVER CENTENNIAL AP,CO,39.56,-104.8483,1789.2
USW00093002,DENVER WSO CITY,CO,39.75,-104.9833,1623.1
USW00003078,EADS 16 ENE,CO,38.5442,-102.5025,1209.1
USW00094035,FT COLLINS LOVELAND AP,CO,40.45,-105.0167,1526.7
USW00003093,GENOA 35 N,CO,39.7858,-103.5169,1452.1
USW00003063,LA JUNTA 17 WSW,CO,37.8639,-103.8225,1336.9
USW00093009,LEADVILLE LAKE CO AP,CO,39.2281,-106.3164,3030.6
USW00094050,MEEKER AP,CO,40.0444,-107.8883,1940.7
USW00003060,MONTROSE 11 ENE,CO,38.5439,-107.6928,2560.9
USW00023068,PUEBLO,CO,38.2725,-104.6089,1420.4
USW00003096,RIFLE 23 NW,CO,39.7608,-108.1267,2301.2
USW00003089,ROCKY FORD 1 ESE,CO,38.0386,-103.6947,1271.0
USW00003079,SAGUACHE 2 WNW,CO,38.0989,-106.1708,2384.5
USW00003086,SPRINGFIELD 6 WSW,CO,37.3814,-102.7194,1389.0
USW00054734,DANBURY MUNI AP,CT,41.3722,-73.4833,138.1
USW00014752,HARTFORD BRAINARD FLD,CT,41.7353,-72.6511,4.0
USW00093725,WASHINGTON,DC,38.9053,-77.0525,34.1
USW00013781,WILMINGTON NEW CASTLE CO AP,DE,39.6744,-75.6056,22.6
USW00012832,APALACHICOLA AP,FL,29.7269,-85.0247,5.5
USW00012867,COCOA BEACH PATRICK AFB,FL,28.2333,-80.6,3.0
USW00012849,FT LAUDERDALE INTL AP,FL,26.0789,-80.1622,0.9
USW00012835,FT MYERS PAGE FLD AP,FL,26.585,-81.8614,4.0
USW00012895,FT PIERCE ST LUCIE CO INTL AP,FL,27.4981,-80.3764,5.8
USW00092809,HOLLYWOOD N PERRY AP,FL,25.9994,-80.2411,1.8
USW00053860,JACKSONVILLE CRAIG MUNI AP,FL,30.3369,-81.5128,11.9
USW00093837,JACKSONVILLE NAS,FL,30.2333,-81.6667,6.1
USW00093852,JACKSONVILLE WB CITY,FL,30.3333,-81.65,25.0
USW00063890,JACKSONVILLE WHITEHOUSE NAVAL,FL,30.3503,-81.8761,27.1
USW00012883,LAKELAND LINDER RGNL AP,FL,28.0,-82.05,45.1
USW00012810,MACDILL AFB,FL,27.85,-82.5167,7.9
USW00012838,MELBOURNE INTL AP,FL,28.0997,-80.6356,6.7
USW00012851,MELBOURNE NAS,FL,28.1,-80.6333,17.1
USW00092811,MIAMI BEACH,FL,25.8064,-80.1333,2.4
USW00013899,PENSACOLA RGNL AP,FL,30.4761,-87.1858,36.0
USW00093859,PENSACOLA WB CITY,FL,30.4167,-87.2167,15.8
USW00053862,PERRY FOLEY AP,FL,30.0719,-83.5736,13.7
USW00012889,PINECASTLE NF,FL,29.1431,-81.6328,28.0
USW00012812,PUNTA GORDA CHARLOTTE CO AP,FL,26.9183,-81.9939,6.1
USW00012853,RICHMOND NAS,FL,25.6167,-80.4167,9.1
USW00012871,SARASOTA BRADENTON AP,FL,27.4014,-82.5586,5.2
USW00092806,ST PETERSBURG ALBERT WHITTED A,FL,27.7683,-82.6256,1.2
USW00012873,ST PETERSBURG CLEARWATER INTL,FL,27.9125,-82.6856,0.0
USW00012844,W PALM BEACH INTL AP,FL,26.685,-80.0992,3.7
USW00053847,WHITING FLD NAS S,FL,30.6972,-87.0208,50.0
USW00013869,ALBANY SW GEORGIA RGNL AP,GA,31.5364,-84.1958,58.2
USW00063856,BRUNSWICK 23 S,GA,30.8078,-81.4597,7.6
USW00053873,CARTERSVILLE AP,GA,34.1158,-84.8508,230.1
USW00053838,GAINESVILLE LEE GILMER MEM AP,GA,34.2722,-83.8306,386.5
USW00063813,MARIETTA COBB CO AP,GA,34.0131,-84.5986,317.0
USW00003822,SAVANNAH INTL AP,GA,32.1314,-81.2022,8.8
USW00013861,WAYCROSS WSMO,GA,31.25,-82.4,42.7
USW00094989,AMES MUNI AP,IA,41.9906,-93.6186,281.3
USW00014930,ATLANTIC CAA AP,IA,41.45,-95.0667,353.0
USW00054902,DES MOINES 17 E,IA,41.5561,-93.2856,280.7
USW00094908,DUBUQUE RGNL AP,IA,42.3983,-90.7092,317.0
USW00014934,DUBUQUE RIVER,IA,42.4,-90.7,177.1
USW00094971,ESTHERVILLE MUNI AP,IA,43.4008,-94.7478,400.5
USW00094988,MARSHALLTOWN MUNI AP,IA,42.1106,-92.9164,295.4
USW00014950,OTTUMWA IND AP,IA,41.1008,-92.4444,254.2
USW00014948,OTTUMWA NAS,IA,41.1,-92.4333,257.9
USW00014943,SIOUX CITY AP,IA,42.3917,-96.3794,332.8
USW00024131,BOISE AIR TERMINAL,ID,43.5669,-116.2406,860.5
USW00024133,BURLEY MUNI AP,ID,42.5453,-113.7686,1262.8
USW00004114,CHALLIS AP,ID,44.5231,-114.2161,1534.1
USW00024136,COEUR D ALENE AP,ID,47.7667,-116.8167,703.2
USW00024140,DUBOIS,ID,44.1667,-112.2167,1563.9
USW00094143,IDAHO FALLS 46 W,ID,43.5317,-112.9422,1505.1
USW00004110,JEROME CO AP,ID,42.7272,-114.4547,1226.5
USW00094182,MCCALL AP,ID,44.8942,-116.0997,1531.0
USW00024106,MTN HOME AFB,ID,43.05,-115.8667,913.2
USW00094150,MULLAN PASS,ID,47.4667,-115.7667,1093.0
USW00004127,MURPHY 10 W,ID,43.2044,-116.7506,1204.0
USW00094194,REXBURG MADISON CO AP,ID,43.8322,-111.8075,1480.7
USW00054831,BLOOMINGTON NORMAL AP,IL,40.4833,-88.95,263.7
USW00093810,CARBONDALE STHRN ILLINOIS AP,IL,37.7833,-89.2453,121.9
USW00004808,CHICAGO AURORA MUNI AP,IL,41.7714,-88.4814,213.7
USW00014892,CHICAGO UNIV,IL,41.7833,-87.6,181.1
USW00014880,CHICAGO WAUKEGAN RGNL AP,IL,42.4256,-87.8633,216.4
USW00014834,JOLIET,IL,41.55,-88.0833,167.9
USW00014810,PARK RIDGE,IL,42.0169,-87.8333,200.9
USW00014806,RANTOUL,IL,40.3131,-88.1594,225.6
USW00054811,SHABBONA 5 NNE,IL,41.8431,-88.8514,262.4
USW00093822,SPRINGFIELD ABRAHAM LINCOLN CA,IL,39.8453,-89.6839,179.8
USW00003838,VANDALIA FAA AP,IL,38.9833,-89.1667,163.1
USW00003893,BLOOMINGTON MONROE CO AP,IN,39.1431,-86.6167,253.3
USW00014805,FT WAYNE BAER FLD,IN,41.0167,-85.2167,246.9
USW00014829,GOSHEN MUNI AP,IN,41.5264,-85.7872,251.2
USW00053842,INDIANAPOLIS EAGLE CREEK AP,IN,39.8247,-86.2958,247.5
USW00014848,S BEND AP,IN,41.7072,-86.3164,235.3
USW00004846,VALPARAISO PORTER CO MUNI AP,IN,41.4536,-86.9981,234.1
USW00013980,ANTHONY,KS,37.155,-98.0283,408.4
USW00013985,DODGE CITY,KS,37.7608,-99.9689,814.1
USW00013940,GREAT BEND MUNI AP,KS,38.35,-98.8667,573.0
USW00003067,OAKLEY 19 SSW,KS,38.87,-100.9628,874.8
USW00003998,PARSONS TRI CITY AP,KS,37.3281,-95.5044,264.0
USW00093997,RUSSELL MUNI AP,KS,38.8725,-98.8092,568.1
USW00003928,WICHITA,KS,37.6544,-97.4431,426.7
USW00063849,BOWLING GREEN 21 NNE,KY,37.2503,-86.2325,240.8
USW00093808,BOWLING GREEN WARREN CO AP,KY,36.9647,-86.4239,159.4
USW00093814,CINCINNATI/NORTHERN KENTUCKY I,KY,39.0444,-84.6725,262.4
USW00013806,FT CAMPBELL AAF,KY,36.6667,-87.4833,173.1
USW00013807,GODMAN AFBU FT KNOX,KY,37.9,-85.9667,224.0
USW00053803,OWENSBORO DAVIESS CO RGNL AP,KY,37.75,-87.1667,122.8
USW00012884,BOOTHVILLE ASOS,LA,29.3331,-89.4075,0.9
USW00012863,BURRWOOD WB,LA,28.9667,-89.3833,4.0
USW00063903,FT POLK - SELF STRIP,LA,31.1136,-92.9656,114.0
USW00013941,LAKE CHARLES CHENAULT,LA,30.2167,-93.15,4.9
USW00012916,NEW ORLEANS AP,LA,29.9975,-90.2778,-0.9
USW00012930,NEW ORLEANS AUDUBON,LA,29.9167,-90.1303,6.1
USW00053917,NEW ORLEANS LAKEFRONT AP,LA,30.0494,-90.0289,0.9
USW00012968,SALT PT,LA,29.5589,-91.525,0.9
USW00013957,SHREVEPORT,LA,32.4508,-93.8414,118.0
USW00014702,BEDFORD HANSCOM FLD,MA,42.4681,-71.2947,39.0
USW00014753,BLUE HILL LCD,MA,42.2122,-71.1136,190.5
USW00014704,FALMOUTH OTIS AFB,MA,41.65,-70.5167,39.9
USW00094720,HYANNIS BARNSTABLE MUNI AP,MA,41.6719,-70.2697,11.3
USW00014658,NANTUCKET SHOALS AFS,MA,41.0167,-69.5,27.1
USW00094726,NEW BEDFORD MUNI AP,MA,41.6792,-70.9592,22.6
USW00014763,PITTSFIELD MUNI AP,MA,42.4269,-73.2892,351.1
USW00014790,SOUTH WEYMOUTH NAS,MA,42.15,-70.9333,47.9
USW00094724,VINEYARD HAVEN MARTHAS VINEYAR,MA,41.3931,-70.6158,18.0
USW00013752,ANNAPOLIS US NAVAL ACADEMY ASO,MD,38.9914,-76.4892,1.8
USW00013730,FREDERICK WFMD,MD,39.4167,-77.4667,132.9
USW00093733,FT MEADE TPTN AAF,MD,39.0833,-76.7667,46.0
USW00093706,HAGERSTOWN RGNL AP,MD,39.7061,-77.7303,209.4
USW00093784,MARYLAND SCI CTR,MD,39.2814,-76.6111,6.1
USW00013721,PATUXENT RIVER NAS,MD,38.3,-76.4167,11.9
USW00093720,SALISBURY-WICOMICO RGNL AP,MD,38.3408,-75.5133,14.3
USW00014607,CARIBOU WFO,ME,46.8706,-68.0172,188.7
USW00094626,GREENVILLE MAINE FORESTRY SVC,ME,45.4619,-69.5956,310.9
USW00094645,LIMESTONE 4 NNW,ME,46.96,-67.8833,224.6
USW00014623,LIMESTONE LORING AFB,ME,46.95,-67.8833,228.9
USW00014610,MILLINOCKET MUNI AP,ME,45.6478,-68.6925,122.2
USW00094644,OLD TOWN 2 W,ME,44.9281,-68.7006,38.7
USW00014764,PORTLAND JETPORT,ME,43.6425,-70.3045,13.4
USW00014604,PRESQUE ISLE AP,ME,46.6833,-68.05,1480.1
USW00094623,WISCASSET AP,ME,43.9639,-69.7114,16.2
USW00094849,ALPENA CO RGNL AP,MI,45.0717,-83.5644,208.2
USW00094889,ANN ARBOR MUNI AP,MI,42.2239,-83.7397,250.5
USW00094871,BENTON HARBOR,MI,42.1289,-86.4153,195.4
USW00054810,CHATHAM 1 SE,MI,46.3344,-86.92,266.7
USW00094899,COPPER HARBOR,MI,47.4675,-87.875,185.0
USW00014824,ESCANABA,MI,45.7181,-87.0939,179.8
USW00094853,ESCANABA DELTA CO AP,MI,45.7333,-87.0833,181.1
USW00014859,GRAND MARAIS 2 E,MI,46.6667,-85.95,190.2
USW00014858,HANCOCK HOUGHTON CO AP,MI,47.1658,-88.4808,324.0
USW00094824,KINROSS AFB,MI,46.25,-84.4667,262.1
USW00004856,MANISTIQUE,MI,45.95,-86.2297,178.0
USW00014838,MARQUETTE,MI,46.5458,-87.3794,202.7
USW00014841,PELLSTON RGNL AP,MI,45.5644,-84.7928,215.2
USW00094817,PONTIAC OAKLAND CO INTL AP,MI,42.6631,-83.4103,295.4
USW00094898,PORT HOPE,MI,44.0217,-82.7931,180.1
USW00014850,TRAVERSE CY CHERRY CAPITAL AP,MI,44.7389,-85.5678,185.3
USW00004902,AUSTIN MUNI AP,MN,43.6647,-92.9333,375.8
USW00094961,BAUDETTE INTL AP,MN,48.7261,-94.6122,329.8
USW00094938,BRAINERD CROW WING CO AP,MN,46.4019,-94.1272,372.5
USW00014913,DULUTH,MN,46.8369,-92.2097,470.0
USW00094909,DULUTH WILIAMSON JOH,MN,46.8333,-92.1833,428.9
USW00094948,FAIRMONT MUNI AP,MN,43.65,-94.4167,353.9
USW00094931,HIBBING CHISHOLM HIBBING AP,MN,47.3803,-92.8325,408.1
USW00094963,MINNEAPOLIS FLYING CLOUD AP,MN,44.8322,-93.4706,275.8
USW00094967,PARK RAPIDS MUNI AP,MN,46.8997,-95.0669,439.2
USW00004967,RED WING RGNL AP,MN,44.5892,-92.4847,237.7
USW00014992,REDWOOD FALLS MUNI AP,MN,44.5483,-95.0806,312.7
USW00014927,ST PAUL DWTN AP,MN,44.9322,-93.0558,213.4
USW00094927,WORTHINGTON MUNI AP,MN,43.6551,-95.5792,479.8
USW00093972,KANSAS CITY,MO,39.1,-94.5833,294.1
USW00003994,SEDALIA MEM AP,MO,38.7119,-93.1747,271.6
USW00013993,ST JOSEPH ROSECRANS MEM AP,MO,39.7683,-94.9094,246.0
USW00093910,ST LOUIS LAMBERT,MO,38.75,-90.3833,166.1
USW00013994,ST LOUIS LAMBERT INTL AP,MO,38.7525,-90.3733,161.8
USW00014945,TARKIO,MO,40.4344,-95.3883,318.5
USW00013997,VICHY ROLLA NATL AP,MO,38.1317,-91.7647,338.3
USW00053901,W PLAINS MUNI AP,MO,36.8792,-91.9053,373.7
USW00013978,GREENWOOD LEFLORE AP,MS,33.4961,-90.0894,42.7
USW00093874,GULFPORT - BILOXI AP,MS,30.4122,-89.0808,4.9
USW00023803,HOLLY SPRINGS 4 N,MS,34.8222,-89.4347,147.5
USW00003961,NATCHEZ ADAM CO AP,MS,31.6167,-91.2833,82.9
USW00063831,NEWTON 5 ENE,MS,32.3378,-89.0703,114.0
USW00053858,PASCAGOULA LOTT INTL AP,MS,30.4631,-88.5317,2.7
USW00093862,TUPELO RGNL AP,MS,34.2622,-88.7714,103.6
USW00013979,VICKSBURG CAA AP,MS,32.4,-90.7833,36.9
USW00094055,BAKER MUNI AP,MT,46.3519,-104.2614,902.8
USW00024132,BOZEMAN GALLATIN FLD AP,MT,45.7875,-111.1614,1350.6
USW00024135,BUTTE BERT MOONEY AP,MT,45.9644,-112.5014,1677.9
USW00024040,CUSTER,MT,46.1333,-107.5333,836.1
USW00024138,DILLON AP,MT,45.2583,-112.5545,1584.7
USW00024139,DRUMMOND AVIATION,MT,46.6383,-113.1761,1219.2
USW00094008,GLASGOW,MT,48.2064,-106.6247,726.6
USW00094012,HAVRE AP ASOS,MT,48.5425,-109.7644,788.2
USW00024144,HELENA AP ASOS,MT,46.6044,-111.9892,1178.1
USW00094104,HELENA WB CITY,MT,46.5833,-112.0333,1263.1
USW00024036,LEWISTOWN AP,MT,47.0544,-109.4567,1257.3
USW00024112,MALMSTROM AFB,MT,47.5167,-111.1833,1058.3
USW00094010,ST MARIE,MT,48.4089,-106.5144,840.0
USW00094059,WOLF POINT 34 NE,MT,48.4886,-105.2097,805.6
USW00094017,WOLF PT INTL AP,MT,48.0942,-105.5783,604.7
USW00003812,ASHEVILLE AP,NC,35.4317,-82.5378,645.6
USW00013754,CHERRY POINT MCAS,NC,34.9,-76.8833,8.8
USW00013761,EDENTON NAAS,NC,36.0167,-76.5667,13.1
USW00013713,GOLDSBORO 4 SE,NC,35.3444,-77.9647,33.2
USW00003810,HICKORY FAA AP,NC,35.7419,-81.3822,356.6
USW00093726,KINSTON STALLINGS FLD,NC,35.3167,-77.6333,28.7
USW00093719,NEW BERN - ASOS,NC,35.0683,-77.0478,3.4
USW00013714,POPE AFB,NC,35.1739,-79.0089,66.4
USW00093759,ROCKY MT WILSON AP,NC,35.8503,-77.895,45.7
USW00093743,SWANSBORO BOGUE FLD MCAF,NC,34.6833,-77.0333,6.4
USW00013774,WEEKSVILLE NAF,NC,36.25,-76.1333,7.0
USW00014912,DEVILS LAKE KDLR,ND,48.1069,-98.8681,446.2
USW00024012,DICKINSON THEODORE ROOSEVELT R,ND,46.7997,-102.7972,787.3
USW00014914,FARGO HECTOR INTL AP,ND,46.9242,-96.812,272.8
USW00094925,GRAND FORKS AF,ND,47.9667,-97.4,276.1
USW00054937,JAMESTOWN 38 WSW,ND,46.7703,-99.4778,585.2
USW00094011,MINOT AFB,ND,48.4167,-101.35,497.1
USW00024013,MINOT INTL AP,ND,48.2519,-101.2689,505.1
USW00014924,PEMBINA,ND,48.9711,-97.2417,240.8
USW00014949,BELLEVUE OFFUTT AFB,NE,41.1167,-95.9167,319.1
USW00094946,BROKEN BOW MUNI AP,NE,41.4367,-99.6386,771.1
USW00014939,LINCOLN AP,NE,40.8478,-96.7647,356.6
USW00094040,MCCOOK MUNI AP,NE,40.2039,-100.5903,779.4
USW00014941,NORFOLK KARL STEFAN MEM AP,NE,41.98,-97.4336,476.1
USW00094958,ORD EVELYN SHARP FLD,NE,41.6233,-98.9489,627.6
USW00024032,VALENTINE MILLER FLD AP,NE,42.8586,-100.5514,791.0
USW00094079,WHITMAN 5 ENE,NE,42.0681,-101.445,1140.0
USW00014989,YORK,NE,40.8942,-97.6258,507.2
USW00094765,LEBANON MUNI AP,NH,43.6269,-72.3053,168.9
USW00014755,MT WASHINGTON,NH,44.2703,-71.3033,1911.7
USW00054791,ROCHESTER SKYHAVEN AP,NH,43.2794,-70.9242,100.3
USW00013724,ATLANTIC CITY MARINA,NJ,39.3778,-74.4236,3.0
USW00013735,MILLVILLE MUNI AP,NJ,39.3661,-75.0778,17.7
USW00094741,TETERBORO AP,NJ,40.8589,-74.0561,0.9
USW00013775,WILDWOOD NAS,NJ,38.9833,-74.9167,17.1
USW00003035,ARTESIA MUNI AP,NM,32.8525,-104.4675,1079.3
USW00003027,CLINES CORNERS,NM,35.0031,-105.6628,2158.0
USW00023058,COLUMBUS,NM,31.8297,-107.6389,1239.0
USW00003075,DULCE 1 NW,NM,36.9353,-107.0003,2074.5
USW00023060,EL MORRO CAA AP,NM,35.0167,-108.4,2171.1
USW00093041,LAS CRUCES MUNI AP,NM,32.2833,-106.9167,1357.6
USW00003095,MILLS 6 WSW,NM,36.0608,-104.3553,1788.0
USW00003097,MOUNTAINAIR 2 WSW,NM,34.5169,-106.2703,1977.8
USW00023045,RODEO CAA AP,NM,31.9333,-108.9833,1254.9
USW00023009,ROSWELL IND AIR PK,NM,33.3072,-104.5081,1104.6
USW00023049,SANTA FE CO MUNI AP,NM,35.6108,-106.0958,1916.3
USW00093063,SILVER CITY CO AP,NM,32.6333,-108.1667,1637.7
USW00003012,TAOS MUNI AP,NM,36.45,-105.6667,2161.3
USW00093045,TRUTH OR CONSEQUENCES MUNI AP,NM,33.2369,-107.2686,1470.1
USW00053016,VAUGHN 36 SSE,NM,34.1372,-104.9303,1534.4
USW00093044,ZUNI,NM,35.0706,-108.8389,1923.6
USW00024119,BATTLE MOUNTAIN 4SE,NV,40.6117,-116.8917,1373.1
USW00003109,CAMP MERCURY,NV,36.95,-116.0833,1196.0
USW00003160,DESERT ROCK AP,NV,36.6206,-116.0278,984.5
USW00024121,ELKO RGNL AP,NV,40.8239,-115.7864,1540.5
USW00024172,LOVELOCK DERBY FLD AP,NV,40.0683,-118.5703,1189.6
USW00023169,MCCARRAN INTL AP,NV,36.0719,-115.1633,662.9
USW00023185,RENO AP,NV,39.5078,-119.7683,1342.6
USW00023153,TONOPAH AP,NV,38.0506,-117.0906,1645.6
USW00053145,TONOPAH TEST RNG #74 NELLIS AF,NV,37.6172,-116.2642,1755.6
USW00024128,WINNEMUCCA AP,NV,40.9017,-117.8081,1310.6
USW00014797,BEAR MTN WB,NY,41.3167,-74.0,396.8
USW00014750,GLENS FALLS AP,NY,43.3386,-73.6103,97.8
USW00014717,GRIFFISS AFB,NY,43.2333,-75.4,158.2
USW00094725,MASSENA INTL AP,NY,44.9333,-74.8483,61.0
USW00004724,NIAGARA FALLS INTL AP,NY,43.1083,-78.9381,178.3
USW00054778,PENN YAN AP,NY,42.6442,-77.0528,267.3
USW00064776,PLATTSBURGH INTL AP,NY,44.6392,-73.4631,50.3
USW00014757,POUGHKEEPSIE AP,NY,41.6258,-73.8817,46.6
USW00014768,ROCHESTER GTR INTL,NY,43.1172,-77.6753,164.6
USW00094740,SARANAC LK ADIRONDACK RGNL AP,NY,44.3928,-74.2028,505.7
USW00014774,UTICA AP,NY,43.1667,-75.3167,163.1
USW00014813,AKRON FULTON INTL AP,OH,41.0372,-81.4633,318.2
USW00093818,CHESAPEAKE HUNTINGTON,OH,38.4167,-82.5,170.7
USW00014820,CLEVELAND,OH,41.4133,-81.86,262.1
USW00004804,COLUMBUS OHIO STATE UNIV AP,OH,40.0783,-83.0783,274.9
USW00053859,DAYTON WRIGHT BROTHERS AP,OH,39.5917,-84.2264,290.5
USW00004858,NEWARK HEATH AP,OH,40.0264,-82.4633,267.6
USW00014843,PERRY CAA AP,OH,41.7833,-81.1,210.9
USW00063888,SPRINGFIELD BECKLEY AP,OH,39.8403,-83.84,320.3
USW00004848,TOLEDO METCALF FLD,OH,41.5633,-83.4767,189.0
USW00054856,WOOSTER 3 SSE,OH,40.7642,-81.9103,335.9
USW00003981,ALTUS AFB,OK,34.3622,-98.9767,400.8
USW00013903,ARDMORE AFB,OK,34.3,-97.0167,221.9
USW00013965,ARDMORE FAA AP,OK,34.3,-97.0167,221.0
USW00003959,BARTLESVILLE MUNI AP,OK,36.7664,-96.0131,210.3
USW00003932,CLINTON-SHERMAN AP,OK,35.3567,-99.2042,584.6
USW00013967,OKLAHOMA CY WILL ROGERS WORLD,OK,35.3883,-97.6003,389.8
USW00013969,PONCA CITY MUNI AP,OK,36.7369,-97.1022,304.2
USW00094281,AURORA STATE AP,OR,45.2467,-122.7708,59.7
USW00024199,BAKER KBKR,OR,44.7667,-117.8333,1050.0
USW00024134,BURNS WSO CITY,OR,43.5833,-119.05,1262.2
USW00004125,JOHN DAY 35 WNW,OR,44.5561,-119.6458,684.3
USW00024249,KLAMATH FALLS,OR,42.1333,-121.75,1247.9
USW00024152,MEACHAM,OR,45.5117,-118.4247,1136.9
USW00024285,NEWPORT,OR,44.6431,-124.0556,37.2
USW00024162,ONTARIO,OR,44.0142,-117.0081,666.9
USW00024242,PORTLAND TROUTDALE AP,OR,45.5511,-122.4097,7.6
USW00094261,PORTLAND-HILLSBORO AP,OR,45.5475,-122.9558,59.7
USW00024235,SEXTON SUMMIT,OR,42.6,-123.3667,1170.7
USW00024236,SISKIYOU SUMMIT,OR,42.0833,-122.5667,1367.0
USW00024254,TILLAMOOK NAS,OR,45.4167,-123.8,11.9
USW00014736,ALTOONA BLAIR CO AP,PA,40.3,-78.3167,446.5
USW00004751,BRADFORD RGNL AP,PA,41.7983,-78.6356,642.2
USW00014860,ERIE INTL AP,PA,42.0803,-80.1822,222.2
USW00093762,FOUNTAIN DALE SITE R HELIPAD,PA,39.7333,-77.4333,249.3
USW00014751,HARRISBURG CAPITAL CITY AP,PA,40.2183,-76.8553,102.1
USW00014778,WILLIAMSPORT RGNL AP,PA,41.2431,-76.9217,159.7
USW00014799,BLOCK ISLAND,RI,41.1667,-71.5667,13.1
USW00014782,CHARLESTOWN NAAS,RI,41.3333,-71.6667,14.9
USW00014787,NEWPORT STATE AP,RI,41.53,-71.2833,45.1
USW00013880,CHARLESTON INTL AP,SC,32.8994,-80.0408,11.9
USW00013782,DWTN CHARLESTON,SC,32.775,-79.9239,3.0
USW00003858,EASTOVER MCENTIRE ANG,SC,33.9667,-80.8,89.9
USW00013886,GREENVILLE DWTN AP,SC,34.8486,-82.35,310.0
USW00053874,GREENWOOD CO AP,SC,34.2539,-82.1528,188.1
USW00053871,ROCK HILL YORK CO AP,SC,34.9836,-81.0561,197.5
USW00014929,ABERDEEN,SD,45.4558,-98.4133,421.5
USW00094902,BROOKINGS,SD,44.3,-96.8,502.3
USW00094037,BUFFALO (ASOS),SD,45.6042,-103.5469,922.0
USW00094081,BUFFALO 13 ESE,SD,45.5161,-103.3017,878.7
USW00094032,CUSTER CO AP,SD,43.7331,-103.615,1695.9
USW00024006,ELLSWORTH AFB,SD,44.15,-103.1,979.9
USW00094950,MITCHELL AP,SD,43.7742,-98.0383,396.5
USW00094052,MOBRIDGE MUNI AP,SD,45.5494,-100.4086,520.9
USW00094085,PIERRE 24 S,SD,44.0194,-100.3531,647.4
USW00024025,PIERRE RGNL AP,SD,44.3819,-100.2864,524.0
USW00094039,PINE RIDGE AP,SD,43.0261,-102.52,1001.9
USW00024090,RAPID CITY RGNL AP,SD,44.0458,-103.0545,963.8
USW00014946,WATERTOWN RGNL AP,SD,44.9044,-97.1494,530.7
USW00013877,BRISTOL AP,TN,36.4797,-82.3989,456.0
USW00053875,CHATTANOOGA WB CITY,TN,35.0667,-85.3,208.8
USW00003847,CROSSVILLE MEM AP,TN,35.9508,-85.0814,568.5
USW00093916,MEMPHIS PO BLDG,TN,35.15,-90.05,117.0
USW00013897,NASHVILLE INTL AP,TN,36.1106,-86.6881,178.9
USW00013910,ABILENE DYESS AFB,TX,32.4333,-99.85,545.0
USW00013962,ABILENE RGNL AP,TX,32.4106,-99.6819,544.7
USW00003049,ALPINE CASPARIS AP,TX,30.3833,-103.6833,1375.6
USW00012981,BAY CITY MUNI AP,TX,28.9731,-95.8633,13.7
USW00000209,BOWIE MUNI AP,TX,33.6,-97.7831,336.2
USW00012926,CORPUS CHRISTI NAS,TX,27.6878,-97.2917,4.6
USW00093042,DALHART FAA AP,TX,36.0253,-102.5489,1215.5
USW00003971,DALLAS REDBIRD AP,TX,32.6781,-96.8678,200.6
USW00022010,DEL RIO INTL AP,TX,29.3783,-100.9269,305.7
USW00012987,EDINBURG 17 NNE,TX,26.5258,-98.0633,19.5
USW00023080,EL PASO,TX,31.7833,-106.5,1150.0
USW00023044,EL PASO INTL AP,TX,31.8122,-106.3775,1202.1
USW00003933,FT HOOD,TX,31.1333,-97.7167,281.6
USW00093904,FT WORTH MEACHAM FLD NAAF,TX,32.8167,-97.35,214.9
USW00012944,GALVESTON,TX,29.3,-94.8,2.1
USW00012923,GALVESTON SCHOLES FLD,TX,29.2703,-94.8642,1.5
USW00000362,GATESVILLE MUNI AP,TX,31.4169,-97.8,276.1
USW00053977,GRANBURY MUNI AP,TX,32.4444,-97.8169,237.1
USW00053967,GRAYSON CO AP,TX,33.7142,-96.6736,228.3
USW00012904,HARLINGEN RIO GRANDE VLY INTL,TX,26.2303,-97.6556,9.4
USW00053972,HILLSBORO MUNI AP,TX,32.0836,-97.0972,208.8
USW00053903,HUNTSVILLE MUNI AP,TX,30.7444,-95.5867,105.5
USW00013955,KILEEN FT HOOD S AAF,TX,31.1333,-97.7167,281.9
USW00012907,LAREDO INTL AP,TX,27.5333,-99.4667,150.6
USW00003901,LONGVIEW E TX RGNL AP,TX,32.3908,-94.7139,107.3
USW00093987,LUFKIN ANGELINA CO AP,TX,31.2358,-94.7547,87.2
USW00012959,MCALLEN MILLER INTL AP,TX,26.1792,-98.2444,30.2
USW00023023,MIDLAND ODESSA,TX,31.9433,-102.1892,902.8
USW00003047,MONAHANS 6 ENE,TX,31.6219,-102.8072,830.3
USW00003054,MULESHOE 19 S,TX,33.9558,-102.7739,1140.6
USW00012974,ORANGE GROVE,TX,27.9,-98.05,78.3
USW00093914,PALESTINE 2 NE,TX,31.7831,-95.6039,141.7
USW00022016,PANTHER JUNCTION 2 N,TX,29.3483,-103.2092,1065.0
USW00023906,PORT ARANSAS 32 NNE,TX,28.3044,-96.8231,4.6
USW00012957,PORT ISABEL CAMERON CO AP,TX,26.1597,-97.3378,5.2
USW00000471,PRESIDIO LELY INTL AP,TX,29.6342,-104.3614,896.1
USW00023021,REESE AFB,TX,33.6,-102.05,1014.1
USW00093984,TEMPLE DRAUGHTON MIL,TX,31.15,-97.4167,207.9
USW00013959,WACO RGNL AP,TX,31.6181,-97.2283,151.8
USW00012953,WHARTON RGNL AP,TX,29.2661,-96.0075,30.5
USW00023040,WINK FAA AP,TX,31.78,-103.2017,858.3
USW00053185,BEAVER 15 E,UT,38.2731,-112.3769,3088.2
USW00053004,BLUFF 32 NW,UT,37.6011,-109.9886,1959.3
USW00004138,BRIGHAM CITY 28 WNW,UT,41.6164,-112.5436,1509.1
USW00053165,DELTA 4 NE,UT,39.3872,-112.5094,1451.2
USW00024122,FAIRFIELD CAA AP,UT,40.35,-112.05,1513.9
USW00053014,MEXICAN HAT 10 NW,UT,37.2508,-109.9878,1939.7
USW00023176,MILFORD MUNI AP,UT,38.4225,-113.0108,1533.4
USW00053174,PRICE 3 E,UT,39.6081,-110.7508,1778.5
USW00004143,PROVO 22 E,UT,40.2817,-111.2397,2379.9
USW00053166,ST. GEORGE 15 NE,UT,37.2158,-113.3794,1041.5
USW00053149,TORREY 7 E,UT,38.3028,-111.2936,1891.0
USW00094030,VERNAL MUNI AP,UT,40.4431,-109.5128,1605.1
USW00013769,OCEANA NAS,VA,36.8167,-76.0333,7.0
USW00013780,RICHMOND CHIMBORAZO PK,VA,37.5333,-77.4167,49.4
USW00013740,RICHMOND INTL AP,VA,37.5117,-77.3233,50.6
USW00013741,ROANOKE-BLACKSBURG RGNL AP,VA,37.3172,-79.9736,346.9
USW00013742,URBANNA WB CITY,VA,37.6333,-76.5667,9.1
USW00093739,WALLOPS IS NASA TEST FACILITY,VA,37.9372,-75.4661,9.8
USW00093734,WASHINGTON DULLES WB A,VA,38.9833,-77.4667,85.0
USW00013743,WASHINGTON REAGAN NATL AP,VA,38.8472,-77.0344,4.0
USW00014742,BURLINGTON INTL AP,VT,44.4683,-73.15,101.2
USW00094705,MONTPELIER AP,VT,44.205,-72.5656,336.8
USW00054742,SAINT JOHNSBURY ASOS,VT,44.42,-72.0194,212.4
USW00024247,ARLINGTON NAAS,WA,48.2,-122.1833,41.1
USW00024217,BELLINGHAM INTL AP,WA,48.7992,-122.5406,45.7
USW00094297,COUPEVILLE NOLF,WA,48.2167,-122.6333,60.7
USW00024219,DALLESPORT AP,WA,45.6189,-121.1658,71.3
USW00094119,DEER PARK AP,WA,47.9742,-117.4292,672.1
USW00024147,LA CROSSE WB CITY,WA,46.8167,-117.8833,452.0
USW00094290,SEATTLE SAND PT WFO,WA,47.6872,-122.2553,18.3
USW00094227,SHELTON AP,WA,47.2383,-123.1414,84.1
USW00094176,SPOKANE FELTS FLD,WA,47.6858,-117.3214,594.7
USW00024238,STEVENSON WB CITY,WA,45.7167,-121.8333,96.9
USW00094103,WALLA WALLA WSO CITY,WA,46.0333,-118.3333,289.3
USW00094929,ASHLAND KENNEDY MEM AP,WI,46.5467,-90.9183,250.2
USW00094994,BOSCOBEL AP,WI,43.1561,-90.6775,203.0
USW00004845,KENOSHA RGNL AP,WI,42.5953,-87.9383,223.4
USW00094811,MADISON TRUAX,WI,43.1333,-89.3333,262.1
USW00094897,MANITOWOC,WI,44.1333,-87.6667,198.4
USW00054903,NECEDAH 5 WNW,WI,44.0603,-90.1736,284.4
USW00004841,SHEBOYGAN CO MEM AP,WI,43.7747,-87.8492,228.9
USW00013729,ELKINS- RANDOLPH CO AP,WV,38.89,-79.8556,595.9
USW00013867,PARKERSBURG,WV,39.2811,-81.5572,189.0
USW00003804,PARKERSBURG AP,WV,39.3394,-81.4439,245.4
USW00013738,PETERSBURG WB CITY,WV,39.0,-79.1167,307.8
USW00024089,CASPER-NATRONA CO AP,WY,42.8978,-106.4736,1621.2
USW00024045,CODY MUNICIPAL AP,WY,44.5167,-109.0167,1553.9
USW00094023,GILLETTE CAMPBELL CO AP,WY,44.3397,-105.5417,1330.1
USW00024048,GREYBULL S BIG HORN CO AP,WY,44.5172,-108.0753,1190.2
USW00094078,LANDER 11 SSE,WY,42.6753,-108.6686,1759.6
USW00024057,RAWLINS AP,WY,41.8064,-107.1953,2063.2
USW00024029,SHERIDAN AP,WY,44.7603,-106.9742,1210.4
USW00024031,SINCLAIR CAA AP,WY,41.8,-107.05,2000.1
USW00094088,SUNDANCE 8 NNW,WY,44.5169,-104.4364,1765.4
